Time,Latitude,Longitude,Altitude,Pitch,Roll,Heading,Gear State,Latitudinal Stick,Longitudinal Stick,Rudder Pedals,Throttle,Gear Action,Flaps,Speedbrakes
57939.667969,47.189831,-119.333252,364.368530,1.032241,-0.019129,89.852234,1.000000,0.000000,0.000000,0.000000,0.000000,1.000000,0.000000,0.000000
57939.792969,47.189831,-119.333252,364.368530,1.033432,-0.019207,89.851997,1.000000,0.000000,0.000000,0.000000,0.000000,1.000000,0.000000,0.000000
57939.914062,47.189831,-119.333252,364.368530,1.034483,-0.019302,89.851608,1.000000,0.000000,0.000000,0.000000,0.000000,1.000000,0.000000,0.000000
57940.039062,47.189831,-119.333252,364.368500,1.035999,-0.019435,89.851021,1.000000,0.000000,0.000000,0.000000,0.000000,1.000000,0.000000,0.000000
57940.156250,47.189831,-119.333252,364.368500,1.037314,-0.019500,89.850708,1.000000,0.000000,0.000000,0.000000,0.000000,1.000000,0.000000,0.000000
57940.273438,47.189831,-119.333252,364.368500,1.038502,-0.019518,89.850632,1.000000,0.000000,0.000000,0.000000,0.000000,1.000000,0.000000,0.000000
57940.394531,47.189831,-119.333252,364.368500,1.039595,-0.019568,89.850838,1.000000,0.000000,0.000000,0.000000,0.000000,1.000000,0.000000,0.000000
57940.523438,47.189831,-119.333252,364.368500,1.040047,-0.019642,89.851288,1.000000,0.000000,0.000000,0.000000,0.000000,1.000000,0.000000,0.000000
57940.640625,47.189831,-119.333252,364.368500,1.039339,-0.019744,89.851768,1.000000,0.000000,0.000000,0.000000,0.000000,1.000000,0.000000,0.000000
57940.753906,47.189831,-119.333252,364.368500,1.038170,-0.019638,89.852173,1.000000,0.000000,0.000000,0.000000,0.000000,1.000000,0.000000,0.000000
57940.878906,47.189831,-119.333252,364.368500,1.036501,-0.019418,89.852547,1.000000,0.000000,0.000000,0.000000,0.000000,1.000000,0.000000,0.000000
57940.992188,47.189831,-119.333252,364.368530,1.035422,-0.019279,89.852791,1.000000,0.000000,0.000000,0.000000,0.000000,1.000000,0.000000,0.000000
57941.109375,47.189831,-119.333252,364.368530,1.034753,-0.019192,89.853043,1.000000,0.000000,0.000000,0.000000,0.000000,1.000000,0.000000,0.000000
57941.222656,47.189831,-119.333252,364.368530,1.034483,-0.019143,89.853180,1.000000,0.000000,0.000000,0.000000,0.000000,1.000000,0.000000,0.000000
57941.335938,47.189831,-119.333252,364.368530,1.034061,-0.019233,89.853188,1.000000,0.000000,0.000000,0.000000,0.000000,1.000000,0.000000,0.000000
57941.453125,47.189831,-119.333252,364.368530,1.033573,-0.019229,89.853088,1.000000,0.000000,0.000000,0.000000,0.000000,1.000000,0.000000,0.000000
57941.570312,47.189831,-119.333252,364.368530,1.033234,-0.019268,89.852974,1.000000,0.000000,0.000000,0.000000,0.000000,1.000000,0.000000,0.000000
57941.687500,47.189831,-119.333252,364.368530,1.033323,-0.019392,89.852852,1.000000,0.000000,0.000000,0.000000,0.000000,1.000000,0.000000,0.000000
57941.804688,47.189831,-119.333252,364.368530,1.033352,-0.019695,89.852844,1.000000,0.000000,0.000000,0.000000,0.000000,1.000000,0.000000,0.000000
57941.925781,47.189831,-119.333252,364.368530,1.033400,-0.019778,89.852989,1.000000,0.000000,0.000000,0.000000,0.000000,1.000000,0.000000,0.000000
57942.039062,47.189831,-119.333252,364.368530,1.033298,-0.019771,89.853149,1.000000,0.000000,0.000000,0.000000,0.000000,1.000000,0.000000,0.000000
57942.164062,47.189831,-119.333252,364.368530,1.032683,-0.019709,89.853165,1.000000,0.000000,0.000000,0.000000,0.000000,1.000000,0.000000,0.000000
57942.281250,47.189831,-119.333252,364.368530,1.032280,-0.019664,89.852974,1.000000,0.000000,0.000000,0.000000,0.000000,1.000000,0.000000,0.000000
57942.390625,47.189831,-119.333252,364.368530,1.032118,-0.019568,89.852661,1.000000,0.000000,0.000000,0.000000,0.014800,1.000000,0.000000,0.000000
57942.511719,47.189831,-119.333252,364.368561,1.031886,-0.020396,89.852425,1.000000,0.000000,0.000000,0.000000,0.045137,1.000000,0.000000,0.000000
57942.636719,47.189831,-119.333252,364.368530,1.031921,-0.021751,89.852303,1.000000,0.000000,0.000000,0.000000,0.045137,1.000000,0.000000,0.000000
57942.753906,47.189831,-119.333252,364.368530,1.031010,-0.022366,89.852325,1.000000,0.000000,0.000000,0.000000,0.045137,1.000000,0.000000,0.000000
57942.875000,47.189831,-119.333252,364.368561,1.027707,-0.022487,89.852501,1.000000,0.000000,0.000000,0.000000,0.045137,1.000000,0.000000,0.000000
57942.984375,47.189831,-119.333252,364.368561,1.024504,-0.021836,89.851883,1.000000,0.000000,0.000000,0.000000,0.045137,1.000000,0.000000,0.000000
57943.105469,47.189831,-119.333252,364.368500,1.040565,-0.020408,89.842346,1.000000,0.000000,0.000000,0.000000,0.045137,1.000000,0.000000,0.000000
57943.222656,47.189831,-119.333252,364.368347,1.083697,-0.020727,89.819733,1.000000,0.000000,0.000000,0.000000,0.045137,1.000000,0.000000,0.000000
57943.328125,47.189831,-119.333252,364.368042,1.144332,-0.020482,89.785950,1.000000,0.000000,0.000000,0.000000,0.045137,1.000000,0.000000,0.000000
57943.453125,47.189831,-119.333252,364.367737,1.184442,-0.019946,89.742905,1.000000,0.000000,0.000000,0.000000,0.045137,1.000000,0.000000,0.000000
57943.574219,47.189831,-119.333252,364.367554,1.190700,-0.019098,89.695175,1.000000,0.000000,0.000000,0.000000,0.045137,1.000000,0.000000,0.000000
57943.699219,47.189831,-119.333252,364.367493,1.168945,-0.017924,89.642174,1.000000,0.000000,0.000000,0.000000,0.045137,1.000000,0.000000,0.000000
57943.828125,47.189831,-119.333252,364.367493,1.134570,-0.017155,89.590599,1.000000,0.000000,0.000000,0.000000,0.045137,1.000000,0.000000,0.000000
57943.949219,47.189831,-119.333252,364.367493,1.097415,-0.016477,89.538345,1.000000,0.000000,0.000000,0.000000,0.045137,1.000000,0.000000,0.000000
57944.070312,47.189831,-119.333252,364.367889,0.935804,-0.022023,89.610039,1.000000,-0.170517,0.430341,0.086068,0.045137,1.000000,0.000000,0.000000
57944.187500,47.189831,-119.333252,364.368561,0.782490,-0.027196,89.787956,1.000000,-0.170517,0.430341,0.086068,0.045137,1.000000,0.000000,0.000000
57944.304688,47.189831,-119.333252,364.368927,0.716607,-0.027025,90.011124,1.000000,-0.123130,0.272191,0.054438,0.045137,1.000000,0.000000,0.000000
57944.425781,47.189831,-119.333252,364.368805,0.790308,-0.020957,90.255714,1.000000,-0.007262,-0.018520,-0.003704,0.045137,1.000000,0.000000,0.000000
57944.542969,47.189831,-119.333252,364.368134,0.944701,-0.013895,90.410736,1.000000,-0.002315,-0.036483,-0.007297,0.045137,1.000000,0.000000,0.000000
57944.648438,47.189831,-119.333252,364.367401,1.078951,-0.009355,90.507057,1.000000,0.008762,-0.164317,-0.032863,0.045137,1.000000,0.000000,0.000000
57944.761719,47.189831,-119.333252,364.366882,1.143912,-0.007001,90.544167,1.000000,0.008762,-0.164317,-0.032863,0.045137,1.000000,0.000000,0.000000
57944.882812,47.189831,-119.333252,364.366638,1.148722,-0.005890,90.529587,1.000000,0.008762,-0.164317,-0.032863,0.045137,1.000000,0.000000,0.000000
57945.003906,47.189831,-119.333244,364.366638,1.113428,-0.005712,90.468513,1.000000,0.008762,-0.164317,-0.032863,0.045137,1.000000,0.000000,0.000000
57945.125000,47.189831,-119.333244,364.366699,1.065943,-0.006240,90.371063,1.000000,0.008762,-0.164317,-0.032863,0.078719,1.000000,0.000000,0.000000
57945.246094,47.189831,-119.333244,364.366730,1.028259,-0.007729,90.257042,1.000000,0.008762,-0.164317,-0.032863,0.086323,1.000000,0.000000,0.000000
57945.359375,47.189831,-119.333244,364.366699,1.004134,-0.008358,90.133751,1.000000,0.008762,-0.164317,-0.032863,0.086323,1.000000,0.000000,0.000000
57945.468750,47.189831,-119.333244,364.366608,0.990631,-0.007776,89.999359,1.000000,0.008762,-0.164317,-0.032863,0.086323,1.000000,0.000000,0.000000
57945.597656,47.189831,-119.333244,364.366486,0.974682,-0.005547,89.836807,1.000000,0.023696,-0.291863,-0.058373,0.086323,1.000000,0.000000,0.000000
57945.714844,47.189831,-119.333244,364.366547,0.897412,-0.000743,89.626312,1.000000,0.037734,-0.419066,-0.083813,0.086323,1.000000,0.000000,0.000000
57945.828125,47.189831,-119.333244,364.366852,0.800118,0.004670,89.330795,1.000000,0.037734,-0.430341,-0.086068,0.086323,1.000000,0.000000,0.000000
57945.945312,47.189831,-119.333244,364.367065,0.751686,0.008851,88.959145,1.000000,0.048231,-0.524047,-0.104809,0.086323,1.000000,0.000000,0.000000
57946.058594,47.189831,-119.333244,364.367035,0.762755,0.009919,88.586929,1.000000,0.048231,-0.524047,-0.104809,0.086323,1.000000,0.000000,0.000000
57946.191406,47.189831,-119.333244,364.366730,0.822124,0.009895,88.118156,1.000000,0.048231,-0.524047,-0.104809,0.086323,1.000000,0.000000,0.000000
57946.300781,47.189831,-119.333244,364.366364,0.886404,0.009787,87.719772,1.000000,0.048231,-0.524047,-0.104809,0.086323,1.000000,0.000000,0.000000
57946.429688,47.189831,-119.333244,364.366028,0.945922,0.010140,87.312172,1.000000,0.048231,-0.524047,-0.104809,0.086323,1.000000,0.000000,0.000000
57946.539062,47.189831,-119.333244,364.365753,0.985713,0.010277,86.915070,1.000000,0.037734,-0.453188,-0.090638,0.086323,1.000000,0.000000,0.000000
57946.652344,47.189831,-119.333244,364.365601,0.997728,0.010349,86.549866,1.000000,0.037734,-0.430341,-0.086068,0.086323,1.000000,0.000000,0.000000
57946.773438,47.189831,-119.333244,364.365540,0.988353,0.010762,86.195213,1.000000,0.037734,-0.419066,-0.083813,0.109002,1.000000,0.000000,0.000000
57946.898438,47.189831,-119.333244,364.365540,0.967587,0.011093,85.895157,1.000000,0.037734,-0.419066,-0.083813,0.131940,1.000000,0.000000,0.000000
57947.019531,47.189831,-119.333244,364.365601,0.934421,0.012173,85.542877,1.000000,0.037734,-0.419066,-0.083813,0.131940,1.000000,0.000000,0.000000
57947.132812,47.189831,-119.333244,364.365662,0.907123,0.014232,85.263664,1.000000,0.037734,-0.419066,-0.083813,0.131940,1.000000,0.000000,0.000000
57947.250000,47.189831,-119.333244,364.365692,0.882015,0.017091,84.967606,1.000000,0.037734,-0.419066,-0.083813,0.131940,1.000000,0.000000,0.000000
57947.371094,47.189831,-119.333244,364.365723,0.864891,0.020353,84.683388,1.000000,0.037734,-0.419066,-0.083813,0.131940,1.000000,0.000000,0.000000
57947.492188,47.189831,-119.333244,364.365723,0.856258,0.023222,84.425720,1.000000,0.037734,-0.419066,-0.083813,0.131940,1.000000,0.000000,0.000000
57947.617188,47.189831,-119.333244,364.365692,0.852592,0.025916,84.163086,1.000000,0.037734,-0.419066,-0.083813,0.131940,1.000000,0.000000,0.000000
57947.742188,47.189831,-119.333244,364.365631,0.852507,0.028470,83.892212,1.000000,0.037734,-0.419066,-0.083813,0.131940,1.000000,0.000000,0.000000
57947.863281,47.189831,-119.333244,364.365570,0.853989,0.030687,83.644585,1.000000,0.037734,-0.419066,-0.083813,0.131940,1.000000,0.000000,0.000000
57947.980469,47.189831,-119.333244,364.365509,0.855269,0.032644,83.406059,1.000000,0.037734,-0.419066,-0.083813,0.131940,1.000000,0.000000,0.000000
57948.105469,47.189831,-119.333244,364.365479,0.855376,0.034127,83.176277,1.000000,0.037734,-0.419066,-0.083813,0.131940,1.000000,0.000000,0.000000
57948.218750,47.189831,-119.333244,364.365448,0.853964,0.035211,82.962448,1.000000,0.037734,-0.419066,-0.083813,0.131940,1.000000,0.000000,0.000000
57948.339844,47.189831,-119.333244,364.365387,0.851279,0.036224,82.751640,1.000000,0.037734,-0.419066,-0.083813,0.131940,1.000000,0.000000,0.000000
57948.460938,47.189831,-119.333244,364.365356,0.848144,0.037169,82.542679,1.000000,0.037734,-0.419066,-0.083813,0.131940,1.000000,0.000000,0.000000
57948.570312,47.189831,-119.333244,364.365326,0.845614,0.037611,82.359230,1.000000,0.037734,-0.419066,-0.083813,0.131940,1.000000,0.000000,0.000000
57948.695312,47.189831,-119.333244,364.365295,0.842395,0.038102,82.156151,1.000000,0.037734,-0.419066,-0.083813,0.131940,1.000000,0.000000,0.000000
57948.812500,47.189831,-119.333244,364.365295,0.839124,0.038443,81.988976,1.000000,0.023696,-0.332554,-0.066511,0.131940,1.000000,0.000000,0.000000
57948.933594,47.189831,-119.333244,364.365265,0.833475,0.038903,81.805443,1.000000,0.019521,-0.291863,-0.058373,0.131940,1.000000,0.000000,0.000000
57949.054688,47.189831,-119.333244,364.365265,0.827684,0.039324,81.643333,1.000000,0.019521,-0.291863,-0.058373,0.172858,1.000000,0.000000,0.000000
57949.167969,47.189831,-119.333244,364.365265,0.822943,0.038819,81.502487,1.000000,0.019521,-0.291863,-0.058373,0.189572,1.000000,0.000000,0.000000
57949.289062,47.189831,-119.333244,364.365234,0.831561,0.031589,81.360809,1.000000,0.015625,-0.272191,-0.054438,0.211868,1.000000,0.000000,0.000000
57949.406250,47.189831,-119.333244,364.365021,0.882030,0.024154,81.283195,1.000000,0.015625,-0.252982,-0.050596,0.211868,1.000000,0.000000,0.000000
57949.527344,47.189831,-119.333244,364.364655,0.950425,0.036019,81.255310,1.000000,0.015625,-0.252982,-0.050596,0.211868,1.000000,0.000000,0.000000
57949.644531,47.189831,-119.333244,364.364288,0.998137,0.039286,81.283630,1.000000,0.015625,-0.252982,-0.050596,0.211868,1.000000,0.000000,0.000000
57949.765625,47.189831,-119.333244,364.364044,0.998637,0.039642,81.341225,1.000000,0.015625,-0.252982,-0.050596,0.211868,1.000000,0.000000,0.000000
57949.890625,47.189831,-119.333244,364.364014,0.955452,0.040075,81.406906,1.000000,0.015625,-0.252982,-0.050596,0.211868,1.000000,0.000000,0.000000
57950.007812,47.189835,-119.333244,364.364075,0.893820,0.041146,81.470627,1.000000,0.015625,-0.252982,-0.050596,0.211868,1.000000,0.000000,0.000000
57950.121094,47.189835,-119.333244,364.364136,0.837676,0.042489,81.522858,1.000000,0.015625,-0.252982,-0.050596,0.211868,1.000000,0.000000,0.000000
57950.238281,47.189835,-119.333244,364.364166,0.789522,0.043993,81.566391,1.000000,0.015625,-0.252982,-0.050596,0.211868,1.000000,0.000000,0.000000
57950.343750,47.189835,-119.333244,364.364105,0.757628,0.045479,81.594231,1.000000,0.015625,-0.252982,-0.050596,0.211868,1.000000,0.000000,0.000000
57950.464844,47.189835,-119.333244,364.363983,0.740122,0.047026,81.605377,1.000000,0.015625,-0.252982,-0.050596,0.211868,1.000000,0.000000,0.000000
57950.589844,47.189835,-119.333244,364.363800,0.733055,0.048068,81.601151,1.000000,0.015625,-0.252982,-0.050596,0.211868,1.000000,0.000000,0.000000
57950.710938,47.189835,-119.333237,364.363556,0.731310,0.049041,81.577957,1.000000,0.015625,-0.252982,-0.050596,0.211868,1.000000,0.000000,0.000000
57950.835938,47.189835,-119.333237,364.363312,0.732493,0.049901,81.542137,1.000000,0.015625,-0.252982,-0.050596,0.211868,1.000000,0.000000,0.000000
57950.957031,47.189835,-119.333237,364.363068,0.734450,0.050353,81.496124,1.000000,0.015625,-0.252982,-0.050596,0.211868,1.000000,0.000000,0.000000
57951.078125,47.189835,-119.333237,364.362793,0.734881,0.050312,81.443398,1.000000,0.015625,-0.252982,-0.050596,0.211868,1.000000,0.000000,0.000000
57951.195312,47.189835,-119.333237,364.362549,0.732420,0.049833,81.385262,1.000000,0.015625,-0.252982,-0.050596,0.211868,1.000000,0.000000,0.000000
57951.308594,47.189835,-119.333237,364.362305,0.728283,0.048880,81.323517,1.000000,0.015625,-0.252982,-0.050596,0.211868,1.000000,0.000000,0.000000
57951.429688,47.189835,-119.333237,364.362030,0.723584,0.047414,81.256691,1.000000,0.015625,-0.252982,-0.050596,0.211868,1.000000,0.000000,0.000000
57951.554688,47.189835,-119.333237,364.361755,0.720013,0.046478,81.182922,1.000000,0.015625,-0.252982,-0.050596,0.211868,1.000000,0.000000,0.000000
57951.683594,47.189835,-119.333237,364.361450,0.718263,0.045914,81.109039,1.000000,0.015625,-0.252982,-0.050596,0.211868,1.000000,0.000000,0.000000
57951.808594,47.189835,-119.333237,364.361115,0.718409,0.044966,81.032539,1.000000,0.015625,-0.252982,-0.050596,0.211868,1.000000,0.000000,0.000000
57951.917969,47.189835,-119.333237,364.360840,0.719755,0.043987,80.969498,1.000000,0.015625,-0.252982,-0.050596,0.211868,1.000000,0.000000,0.000000
57952.035156,47.189835,-119.333237,364.360535,0.721164,0.042846,80.898186,1.000000,0.015625,-0.252982,-0.050596,0.211868,1.000000,0.000000,0.000000
57952.156250,47.189835,-119.333237,364.360199,0.721731,0.041618,80.827705,1.000000,0.015625,-0.252982,-0.050596,0.211868,1.000000,0.000000,0.000000
57952.269531,47.189835,-119.333237,364.359894,0.721846,0.040185,80.757668,1.000000,0.015625,-0.252982,-0.050596,0.211868,1.000000,0.000000,0.000000
57952.390625,47.189835,-119.333237,364.359558,0.721635,0.038526,80.683533,1.000000,0.015625,-0.252982,-0.050596,0.234582,1.000000,0.000000,0.000000
57952.507812,47.189835,-119.333237,364.359192,0.721231,0.035742,80.608597,1.000000,0.015625,-0.252982,-0.050596,0.267032,1.000000,0.000000,0.000000
57952.625000,47.189835,-119.333229,364.358856,0.720066,0.033200,80.534691,1.000000,0.015625,-0.252982,-0.050596,0.267032,1.000000,0.000000,0.000000
57952.746094,47.189835,-119.333229,364.358490,0.718201,0.031412,80.454674,1.000000,0.015625,-0.252982,-0.050596,0.267032,1.000000,0.000000,0.000000
57952.863281,47.189835,-119.333229,364.358124,0.717484,0.030738,80.374763,1.000000,0.015625,-0.252982,-0.050596,0.267032,1.000000,0.000000,0.000000
57952.984375,47.189835,-119.333229,364.357697,0.717693,0.030660,80.284027,1.000000,0.015625,-0.252982,-0.050596,0.267032,1.000000,0.000000,0.000000
57953.097656,47.189835,-119.333229,364.357330,0.717808,0.031143,80.195717,1.000000,0.015625,-0.252982,-0.050596,0.267032,1.000000,0.000000,0.000000
57953.218750,47.189835,-119.333229,364.356934,0.715823,0.031689,80.108612,1.000000,0.015625,-0.252982,-0.050596,0.267032,1.000000,0.000000,0.000000
57953.332031,47.189835,-119.333229,364.356476,0.711533,0.031653,80.009422,1.000000,0.015625,-0.252982,-0.050596,0.267032,1.000000,0.000000,0.000000
57953.453125,47.189835,-119.333229,364.356018,0.706014,0.031053,79.909355,1.000000,0.015625,-0.252982,-0.050596,0.267032,1.000000,0.000000,0.000000
57953.558594,47.189835,-119.333229,364.355530,0.701430,0.031202,79.814949,1.000000,0.015625,-0.252982,-0.050596,0.267032,1.000000,0.000000,0.000000
57953.695312,47.189835,-119.333229,364.354889,0.698406,0.031430,79.697891,1.000000,0.012029,-0.216000,-0.043200,0.267032,1.000000,0.000000,0.000000
57953.816406,47.189835,-119.333229,364.354095,0.736657,0.030889,79.617271,1.000000,0.003375,-0.125000,-0.025000,0.267032,1.000000,0.000000,0.000000
57953.941406,47.189835,-119.333221,364.353119,0.812017,0.032486,79.590065,1.000000,0.003375,-0.082819,-0.016564,0.267032,1.000000,0.000000,0.000000
57954.050781,47.189835,-119.333221,364.352142,0.877601,0.033726,79.592857,1.000000,0.001398,-0.070093,-0.014019,0.267032,1.000000,0.000000,0.000000
57954.171875,47.189835,-119.333221,364.351044,0.927081,0.034867,79.611420,1.000000,0.001398,-0.070093,-0.014019,0.267032,1.000000,0.000000,0.000000
57954.292969,47.189835,-119.333221,364.349945,0.943525,0.035772,79.633118,1.000000,0.001398,-0.070093,-0.014019,0.295752,1.000000,0.000000,0.000000
57954.414062,47.189835,-119.333221,364.348969,0.931990,0.035728,79.648148,1.000000,0.001398,-0.070093,-0.014019,0.303548,1.000000,0.000000,0.000000
57954.542969,47.189835,-119.333221,364.347931,0.907829,0.036364,79.652962,1.000000,0.001398,-0.070093,-0.014019,0.303548,1.000000,0.000000,0.000000
57954.664062,47.189835,-119.333214,364.346802,0.883368,0.038460,79.644867,1.000000,0.001398,-0.070093,-0.014019,0.303548,1.000000,0.000000,0.000000
57954.781250,47.189835,-119.333214,364.345642,0.868100,0.041088,79.625435,1.000000,0.001398,-0.070093,-0.014019,0.303548,1.000000,0.000000,0.000000
57954.910156,47.189835,-119.333214,364.344330,0.861737,0.044410,79.593102,1.000000,0.001398,-0.070093,-0.014019,0.303548,1.000000,0.000000,0.000000
57955.035156,47.189835,-119.333214,364.342926,0.864671,0.048146,79.547150,1.000000,0.001398,-0.070093,-0.014019,0.303548,1.000000,0.000000,0.000000
57955.152344,47.189838,-119.333206,364.341522,0.875805,0.050244,79.489250,1.000000,0.001398,-0.070093,-0.014019,0.303548,1.000000,0.000000,0.000000
57955.257812,47.189838,-119.333206,364.340332,0.887922,0.049442,79.432190,1.000000,0.001398,-0.070093,-0.014019,0.303548,1.000000,0.000000,0.000000
57955.382812,47.189838,-119.333206,364.338806,0.902426,0.045828,79.351562,1.000000,0.001398,-0.070093,-0.014019,0.303548,1.000000,0.000000,0.000000
57955.503906,47.189838,-119.333206,364.337219,0.914999,0.041115,79.257355,1.000000,0.001398,-0.070093,-0.014019,0.303548,1.000000,0.000000,0.000000
57955.625000,47.189838,-119.333199,364.335602,0.924647,0.036948,79.153702,1.000000,0.001398,-0.070093,-0.014019,0.303548,1.000000,0.000000,0.000000
57955.734375,47.189838,-119.333199,364.334198,0.930497,0.036140,79.055122,1.000000,0.001398,-0.117576,-0.023515,0.303548,1.000000,0.000000,0.000000
57955.855469,47.189838,-119.333199,364.332520,0.925593,0.038269,78.898994,1.000000,0.003375,-0.132574,-0.026515,0.303548,1.000000,0.000000,0.000000
57955.980469,47.189838,-119.333191,364.330811,0.908282,0.042336,78.693642,1.000000,0.005859,-0.164317,-0.032863,0.303548,1.000000,0.000000,0.000000
57956.093750,47.189838,-119.333191,364.329407,0.894406,0.047142,78.463554,1.000000,0.005859,-0.172601,-0.034520,0.303548,1.000000,0.000000,0.000000
57956.199219,47.189838,-119.333191,364.328125,0.914806,0.055344,78.181038,1.000000,0.005859,-0.181019,-0.036204,0.303548,1.000000,0.000000,0.000000
57956.316406,47.189838,-119.333183,364.326721,0.971619,0.065490,77.870178,1.000000,0.005859,-0.181019,-0.036204,0.303548,1.000000,0.000000,0.000000
57956.437500,47.189842,-119.333183,364.325165,1.056070,0.077577,77.533836,1.000000,0.005859,-0.181019,-0.036204,0.303548,1.000000,0.000000,0.000000
57956.554688,47.189842,-119.333183,364.323395,1.158337,0.093251,77.150330,1.000000,0.008762,-0.216000,-0.043200,0.303548,1.000000,0.000000,0.000000
57956.671875,47.189842,-119.333176,364.321777,1.246078,0.114027,76.719917,1.000000,0.008762,-0.216000,-0.043200,0.303548,1.000000,0.000000,0.000000
57956.792969,47.189842,-119.333176,364.321014,1.300236,0.161412,76.283234,1.000000,0.008762,-0.216000,-0.043200,0.303548,1.000000,0.000000,0.000000
57956.910156,47.189842,-119.333168,364.320221,1.338125,0.235829,75.749023,1.000000,0.008762,-0.216000,-0.043200,0.303548,1.000000,0.000000,0.000000
57957.027344,47.189842,-119.333168,364.319427,1.367970,0.308146,75.223274,1.000000,0.008762,-0.216000,-0.043200,0.303548,1.000000,0.000000,0.000000
57957.144531,47.189842,-119.333168,364.318939,1.396584,0.359614,74.740601,1.000000,0.008762,-0.216000,-0.043200,0.303548,1.000000,0.000000,0.000000
57957.265625,47.189846,-119.333160,364.319122,1.412997,0.375022,74.128052,1.000000,0.008762,-0.216000,-0.043200,0.303548,1.000000,0.000000,0.000000
57957.375000,47.189846,-119.333160,364.319366,1.412318,0.367711,73.628876,1.000000,0.008762,-0.216000,-0.043200,0.303548,1.000000,0.000000,0.000000
57957.500000,47.189846,-119.333153,364.319641,1.405069,0.355651,73.068245,1.000000,0.008762,-0.216000,-0.043200,0.303548,1.000000,0.000000,0.000000
57957.621094,47.189846,-119.333153,364.319946,1.397747,0.346910,72.472610,1.000000,0.008762,-0.216000,-0.043200,0.303548,1.000000,0.000000,0.000000
57957.738281,47.189846,-119.333145,364.320221,1.394002,0.343067,71.920296,1.000000,0.008762,-0.216000,-0.043200,0.303548,1.000000,0.000000,0.000000
57957.851562,47.189846,-119.333145,364.320465,1.392223,0.341967,71.351883,1.000000,0.008762,-0.216000,-0.043200,0.303548,1.000000,0.000000,0.000000
57957.972656,47.189850,-119.333138,364.320648,1.388238,0.341324,70.758545,1.000000,0.008762,-0.216000,-0.043200,0.303548,1.000000,0.000000,0.000000
57958.078125,47.189850,-119.333138,364.320770,1.380653,0.339791,70.227600,1.000000,0.008762,-0.216000,-0.043200,0.303548,1.000000,0.000000,0.000000
57958.199219,47.189850,-119.333138,364.320923,1.367180,0.335748,69.618202,1.000000,0.008762,-0.216000,-0.043200,0.303548,1.000000,0.000000,0.000000
57958.328125,47.189850,-119.333130,364.320953,1.352105,0.327023,69.004768,1.000000,0.008762,-0.216000,-0.043200,0.303548,1.000000,0.000000,0.000000
57958.449219,47.189854,-119.333130,364.320923,1.340877,0.317299,68.335655,1.000000,0.008762,-0.216000,-0.043200,0.303548,1.000000,0.000000,0.000000
57958.566406,47.189854,-119.333122,364.320892,1.342212,0.311393,67.755226,1.000000,0.008762,-0.216000,-0.043200,0.303548,1.000000,0.000000,0.000000
57958.683594,47.189854,-119.333122,364.320831,1.355834,0.307713,67.123520,1.000000,0.008762,-0.216000,-0.043200,0.303548,1.000000,0.000000,0.000000
57958.804688,47.189854,-119.333115,364.320709,1.378399,0.304938,66.484413,1.000000,0.008762,-0.216000,-0.043200,0.303548,1.000000,0.000000,0.000000
57958.910156,47.189857,-119.333115,364.320526,1.399354,0.300061,65.930832,1.000000,0.008762,-0.216000,-0.043200,0.303548,1.000000,0.000000,0.000000
57959.035156,47.189857,-119.333107,364.320190,1.413613,0.290087,65.247833,1.000000,0.008762,-0.216000,-0.043200,0.303548,1.000000,0.000000,0.000000
57959.140625,47.189857,-119.333107,364.319855,1.408781,0.279459,64.643776,1.000000,0.008762,-0.216000,-0.043200,0.303548,1.000000,0.000000,0.000000
57959.269531,47.189861,-119.333099,364.319611,1.389301,0.267717,63.984684,1.000000,0.008762,-0.216000,-0.043200,0.303548,1.000000,0.000000,0.000000
57959.382812,47.189861,-119.333099,364.319397,1.364906,0.260437,63.315243,1.000000,0.008762,-0.216000,-0.043200,0.303548,1.000000,0.000000,0.000000
57959.503906,47.189861,-119.333092,364.319061,1.349592,0.263789,62.655193,1.000000,0.008762,-0.216000,-0.043200,0.303548,1.000000,0.000000,0.000000
57959.621094,47.189865,-119.333092,364.318542,1.348598,0.273878,61.975754,1.000000,0.008762,-0.189571,-0.037914,0.303548,1.000000,0.000000,0.000000
57959.734375,47.189865,-119.333084,364.318054,1.372648,0.282595,61.372021,1.000000,0.008762,-0.156170,-0.031234,0.303548,1.000000,0.000000,0.000000
57959.859375,47.189865,-119.333084,364.317444,1.427796,0.292351,60.747978,1.000000,0.005859,-0.089443,-0.017889,0.303548,1.000000,0.000000,0.000000
57959.980469,47.189869,-119.333076,364.316803,1.505736,0.301256,60.197105,1.000000,0.012029,-0.041569,-0.008314,0.303548,1.000000,0.000000,0.000000
57960.105469,47.189869,-119.333076,364.316132,1.568223,0.320162,59.776611,1.000000,0.015625,-0.008000,-0.001600,0.303548,1.000000,0.000000,0.000000
57960.226562,47.189873,-119.333069,364.315552,1.599965,0.344881,59.452267,1.000000,0.015625,-0.008000,-0.001600,0.303548,1.000000,0.000000,0.000000
57960.339844,47.189873,-119.333069,364.315216,1.601750,0.370880,59.159920,1.000000,0.015625,-0.008000,-0.001600,0.303548,1.000000,0.000000,0.000000
57960.460938,47.189877,-119.333061,364.315094,1.575326,0.377237,58.908909,1.000000,0.015625,-0.008000,-0.001600,0.303548,1.000000,0.000000,0.000000
57960.582031,47.189877,-119.333061,364.314911,1.534460,0.363803,58.684380,1.000000,0.037734,0.000000,0.000000,0.303548,1.000000,0.000000,0.000000
57960.707031,47.189880,-119.333054,364.314606,1.496498,0.344429,58.485199,1.000000,0.037734,0.000000,0.000000,0.303548,1.000000,0.000000,0.000000
57960.824219,47.189880,-119.333046,364.314240,1.473804,0.328407,58.308605,1.000000,0.037734,0.000000,0.000000,0.303548,1.000000,0.000000,0.000000
57960.941406,47.189884,-119.333046,364.313812,1.473756,0.314399,58.143055,1.000000,0.037734,0.000000,0.000000,0.303548,1.000000,0.000000,0.000000
57961.058594,47.189884,-119.333038,364.313416,1.498193,0.304779,57.995209,1.000000,0.037734,0.000000,0.000000,0.303548,1.000000,0.000000,0.000000
57961.183594,47.189888,-119.333038,364.312897,1.540312,0.301423,57.843372,1.000000,0.037734,0.000000,0.000000,0.303548,1.000000,0.000000,0.000000
57961.304688,47.189888,-119.333031,364.312469,1.575225,0.302322,57.698093,1.000000,0.037734,0.000000,0.000000,0.303548,1.000000,0.000000,0.000000
57961.414062,47.189892,-119.333023,364.312347,1.582472,0.304585,57.570740,1.000000,0.037734,0.000000,0.000000,0.303548,1.000000,0.000000,0.000000
57961.535156,47.189892,-119.333023,364.312561,1.559950,0.307659,57.431042,1.000000,0.037734,0.000000,0.000000,0.303548,1.000000,0.000000,0.000000
57961.652344,47.189896,-119.333015,364.312897,1.517555,0.311797,57.306534,1.000000,0.037734,0.000000,0.000000,0.303548,1.000000,0.000000,0.000000
57961.785156,47.189896,-119.333008,364.312866,1.460319,0.310245,57.159954,1.000000,0.037734,0.000000,0.000000,0.303548,1.000000,0.000000,0.000000
57961.906250,47.189899,-119.333008,364.312469,1.428443,0.296563,57.014458,1.000000,0.037734,0.000000,0.000000,0.303548,1.000000,0.000000,0.000000
57962.027344,47.189903,-119.333000,364.312012,1.439268,0.281386,56.881954,1.000000,0.037734,0.000000,0.000000,0.303548,1.000000,0.000000,0.000000
57962.136719,47.189903,-119.332993,364.311523,1.475253,0.272709,56.762039,1.000000,0.037734,0.000000,0.000000,0.303548,1.000000,0.000000,0.000000
57962.265625,47.189907,-119.332993,364.310883,1.531829,0.266101,56.616207,1.000000,0.037734,0.000000,0.000000,0.303548,1.000000,0.000000,0.000000
57962.386719,47.189907,-119.332985,364.310333,1.574293,0.255446,56.485336,1.000000,0.037734,0.000000,0.000000,0.303548,1.000000,0.000000,0.000000
57962.496094,47.189911,-119.332977,364.310120,1.593323,0.244357,56.364040,1.000000,0.037734,0.000000,0.000000,0.303548,1.000000,0.000000,0.000000
57962.625000,47.189915,-119.332977,364.310272,1.586832,0.234992,56.217312,1.000000,0.037734,0.000000,0.000000,0.303548,1.000000,0.000000,0.000000
57962.750000,47.189915,-119.332970,364.310516,1.564152,0.225925,56.077396,1.000000,0.037734,0.000000,0.000000,0.303548,1.000000,0.000000,0.000000
57962.871094,47.189919,-119.332962,364.310547,1.539653,0.216764,55.942188,1.000000,0.037734,0.000000,0.000000,0.303548,1.000000,0.000000,0.000000
57962.992188,47.189922,-119.332954,364.310303,1.521203,0.204601,55.795330,1.000000,0.037734,0.000000,0.000000,0.303548,1.000000,0.000000,0.000000
57963.117188,47.189926,-119.332954,364.309845,1.518297,0.183476,55.660408,1.000000,0.037734,0.000000,0.000000,0.303548,1.000000,0.000000,0.000000
57963.242188,47.189926,-119.332947,364.309357,1.530565,0.154506,55.509060,1.000000,0.037734,0.000000,0.000000,0.303548,1.000000,0.000000,0.000000
57963.367188,47.189930,-119.332939,364.308899,1.550599,0.131396,55.363728,1.000000,0.037734,0.000000,0.000000,0.303548,1.000000,0.000000,0.000000
57963.476562,47.189934,-119.332932,364.308502,1.572675,0.121717,55.235554,1.000000,0.037734,0.000000,0.000000,0.303548,1.000000,0.000000,0.000000
57963.601562,47.189934,-119.332924,364.308228,1.605396,0.133333,55.092735,1.000000,0.037734,0.000000,0.000000,0.303548,1.000000,0.000000,0.000000
57963.714844,47.189938,-119.332924,364.308197,1.641338,0.162320,54.962421,1.000000,0.037734,-0.011180,-0.002236,0.303548,1.000000,0.000000,0.000000
57963.835938,47.189941,-119.332916,364.308533,1.682414,0.203266,54.799686,1.000000,0.037734,-0.018520,-0.003704,0.303548,1.000000,0.000000,0.000000
57963.957031,47.189945,-119.332909,364.309021,1.705758,0.222252,54.653603,1.000000,0.037734,-0.031623,-0.006325,0.303548,1.000000,0.000000,0.000000
57964.078125,47.189949,-119.332901,364.309784,1.716664,0.227939,54.472908,1.000000,0.037734,-0.052383,-0.010477,0.303548,1.000000,0.000000,0.000000
57964.199219,47.189949,-119.332893,364.310791,1.706492,0.225422,54.258320,1.000000,0.037734,-0.103189,-0.020638,0.303548,1.000000,0.000000,0.000000
57964.324219,47.189953,-119.332893,364.311890,1.672416,0.223034,53.981682,1.000000,0.037734,-0.125000,-0.025000,0.303548,1.000000,0.000000,0.000000
57964.445312,47.189957,-119.332886,364.312958,1.619446,0.231141,53.630260,1.000000,0.037734,-0.156170,-0.031234,0.303548,1.000000,0.000000,0.000000
57964.566406,47.189960,-119.332878,364.313721,1.559883,0.232950,53.196655,1.000000,0.037734,-0.156170,-0.031234,0.303548,1.000000,0.000000,0.000000
57964.679688,47.189964,-119.332870,364.314301,1.519453,0.232199,52.717144,1.000000,0.037734,-0.156170,-0.031234,0.303548,1.000000,0.000000,0.000000
57964.804688,47.189968,-119.332863,364.314819,1.503824,0.225657,52.147762,1.000000,0.037734,-0.156170,-0.031234,0.303548,1.000000,0.000000,0.000000
57964.917969,47.189968,-119.332855,364.315125,1.509315,0.209225,51.613224,1.000000,0.037734,-0.156170,-0.031234,0.303548,1.000000,0.000000,0.000000
57965.042969,47.189972,-119.332855,364.315308,1.531411,0.182001,50.917637,1.000000,0.037734,-0.156170,-0.031234,0.303548,1.000000,0.000000,0.000000
57965.164062,47.189976,-119.332848,364.315399,1.565749,0.166148,50.271885,1.000000,0.048231,-0.103189,-0.020638,0.303548,1.000000,0.000000,0.000000
57965.281250,47.189980,-119.332840,364.315155,1.615545,0.147242,49.652435,1.000000,0.065506,-0.008000,-0.001600,0.303548,1.000000,0.000000,0.000000
57965.398438,47.189983,-119.332832,364.314728,1.648314,0.138257,49.141537,1.000000,0.065506,-0.001000,-0.000200,0.303548,1.000000,0.000000,0.000000
57965.515625,47.189987,-119.332825,364.314362,1.651299,0.137238,48.648479,1.000000,0.077964,0.046872,0.009374,0.303548,1.000000,0.000000,0.000000
57965.621094,47.189991,-119.332817,364.313995,1.617070,0.131674,48.281357,1.000000,0.091125,0.148162,0.029632,0.303548,1.000000,0.000000,0.000000
57965.753906,47.189995,-119.332817,364.313629,1.537670,0.137437,48.013912,1.000000,0.091125,0.148162,0.029632,0.303548,1.000000,0.000000,0.000000
57965.875000,47.189999,-119.332809,364.313080,1.460340,0.137219,47.882160,1.000000,0.091125,0.148162,0.029632,0.303548,1.000000,0.000000,0.000000
57965.992188,47.190002,-119.332802,364.312469,1.420862,0.125501,47.859268,1.000000,0.091125,0.148162,0.029632,0.303548,1.000000,0.000000,0.000000
57966.113281,47.190006,-119.332794,364.311737,1.429273,0.107869,47.928062,1.000000,0.091125,0.148162,0.029632,0.303548,1.000000,0.000000,0.000000
57966.234375,47.190010,-119.332787,364.311157,1.474912,0.089924,48.074596,1.000000,0.091125,0.198252,0.039650,0.303548,1.000000,0.000000,0.000000
57966.363281,47.190018,-119.332779,364.310669,1.494174,0.061155,48.356171,1.000000,0.097958,0.243555,0.048711,0.303548,1.000000,0.000000,0.000000
57966.480469,47.190022,-119.332771,364.310272,1.457317,0.027276,48.764591,1.000000,0.097958,0.243555,0.048711,0.303548,1.000000,0.000000,0.000000
57966.585938,47.190025,-119.332771,364.309814,1.405991,-0.010163,49.214527,1.000000,0.097958,0.243555,0.048711,0.303548,1.000000,0.000000,0.000000
57966.710938,47.190029,-119.332764,364.309235,1.351312,-0.047893,49.823315,1.000000,0.097958,0.243555,0.048711,0.303548,1.000000,0.000000,0.000000
57966.835938,47.190033,-119.332756,364.308624,1.326252,-0.078854,50.463894,1.000000,0.097958,0.225062,0.045012,0.303548,1.000000,0.000000,0.000000
57966.957031,47.190037,-119.332748,364.308014,1.380118,-0.111710,51.279850,1.000000,0.091125,0.172601,0.034520,0.303548,1.000000,0.000000,0.000000
57967.078125,47.190041,-119.332741,364.307831,1.486340,-0.122468,52.006538,1.000000,0.091125,0.172601,0.034520,0.303548,1.000000,0.000000,0.000000
57967.191406,47.190044,-119.332733,364.307922,1.579850,-0.113742,52.665051,1.000000,0.091125,0.172601,0.034520,0.303548,1.000000,0.000000,0.000000
57967.304688,47.190048,-119.332726,364.308441,1.647341,-0.093275,53.344433,1.000000,0.091125,0.172601,0.034520,0.303548,1.000000,0.000000,0.000000
57967.429688,47.190052,-119.332718,364.309296,1.663597,-0.075123,54.070877,1.000000,0.077964,0.225062,0.045012,0.303548,1.000000,0.000000,0.000000
57967.546875,47.190056,-119.332710,364.310333,1.620782,-0.068011,54.793819,1.000000,0.077964,0.225062,0.045012,0.303548,1.000000,0.000000,0.000000
57967.667969,47.190060,-119.332703,364.311310,1.546241,-0.067569,55.567444,1.000000,0.077964,0.225062,0.045012,0.303548,1.000000,0.000000,0.000000
57967.785156,47.190060,-119.332695,364.312225,1.471421,-0.058550,56.341522,1.000000,0.077964,0.225062,0.045012,0.303548,1.000000,0.000000,0.000000
57967.902344,47.190063,-119.332687,364.313080,1.425561,-0.032631,57.195084,1.000000,0.091125,0.172601,0.034520,0.303548,1.000000,0.000000,0.000000
57968.023438,47.190067,-119.332680,364.313629,1.424964,-0.018895,58.030560,1.000000,0.091125,0.172601,0.034520,0.303548,1.000000,0.000000,0.000000
57968.140625,47.190071,-119.332672,364.314178,1.439420,-0.015593,58.782310,1.000000,0.091125,0.172601,0.034520,0.303548,1.000000,0.000000,0.000000
57968.265625,47.190075,-119.332664,364.314758,1.463055,-0.023712,59.565208,1.000000,0.091125,0.172601,0.034520,0.303548,1.000000,0.000000,0.000000
57968.386719,47.190079,-119.332657,364.315247,1.488638,-0.041828,60.358501,1.000000,0.091125,0.172601,0.034520,0.303548,1.000000,0.000000,0.000000
57968.507812,47.190083,-119.332649,364.315552,1.500145,-0.046899,61.098251,1.000000,0.091125,0.172601,0.034520,0.303548,1.000000,0.000000,0.000000
57968.628906,47.190086,-119.332642,364.315552,1.474572,-0.042856,61.822067,1.000000,0.091125,0.181019,0.036204,0.303548,1.000000,0.000000,0.000000
57968.750000,47.190086,-119.332634,364.315186,1.412917,-0.034266,62.524578,1.000000,0.091125,0.189571,0.037914,0.303548,1.000000,0.000000,0.000000
57968.855469,47.190090,-119.332619,364.314545,1.346528,-0.020473,63.205120,1.000000,0.091125,0.189571,0.037914,0.303548,1.000000,0.000000,0.000000
57968.980469,47.190094,-119.332611,364.313599,1.296443,-0.010072,63.927547,1.000000,0.091125,0.189571,0.037914,0.303548,1.000000,0.000000,0.000000
57969.101562,47.190098,-119.332603,364.312469,1.284421,-0.010459,64.784775,1.000000,0.091125,0.189571,0.037914,0.303548,1.000000,0.000000,0.000000
57969.226562,47.190102,-119.332596,364.311523,1.299249,-0.008646,65.548332,1.000000,0.091125,0.189571,0.037914,0.303548,1.000000,0.000000,0.000000
57969.347656,47.190102,-119.332588,364.310394,1.300423,-0.006224,66.328644,1.000000,0.091125,0.189571,0.037914,0.303548,1.000000,0.000000,0.000000
57969.460938,47.190105,-119.332581,364.309326,1.276720,-0.021056,67.078873,1.000000,0.091125,0.189571,0.037914,0.303548,1.000000,0.000000,0.000000
57969.585938,47.190109,-119.332565,364.308563,1.258941,-0.055252,67.913948,1.000000,0.091125,0.189571,0.037914,0.303548,1.000000,0.000000,0.000000
57969.714844,47.190109,-119.332558,364.307739,1.281749,-0.105906,68.728310,1.000000,0.091125,0.189571,0.037914,0.303548,1.000000,0.000000,0.000000
57969.835938,47.190113,-119.332550,364.307312,1.352058,-0.134038,69.565926,1.000000,0.091125,0.189571,0.037914,0.303548,1.000000,0.000000,0.000000
57969.949219,47.190117,-119.332542,364.307312,1.424049,-0.123088,70.319244,1.000000,0.091125,0.189571,0.037914,0.303548,1.000000,0.000000,0.000000
57970.054688,47.190117,-119.332527,364.307495,1.475977,-0.092175,71.040100,1.000000,0.091125,0.189571,0.037914,0.303548,1.000000,0.000000,0.000000
57970.183594,47.190121,-119.332520,364.307953,1.514360,-0.051375,71.881622,1.000000,0.091125,0.189571,0.037914,0.303548,1.000000,0.000000,0.000000
57970.304688,47.190121,-119.332512,364.308533,1.522639,-0.016147,72.730980,1.000000,0.091125,0.189571,0.037914,0.303548,1.000000,0.000000,0.000000
57970.421875,47.190125,-119.332504,364.308899,1.477337,0.005917,73.506912,1.000000,0.091125,0.189571,0.037914,0.303548,1.000000,0.000000,0.000000
57970.539062,47.190125,-119.332489,364.308838,1.388590,0.038805,74.292244,1.000000,0.091125,0.189571,0.037914,0.303548,1.000000,0.000000,0.000000
57970.660156,47.190128,-119.332481,364.308197,1.289268,0.072397,75.123665,1.000000,0.091125,0.148162,0.029632,0.303548,1.000000,0.000000,0.000000
57970.777344,47.190128,-119.332474,364.307556,1.248280,0.098231,75.897232,1.000000,0.091125,0.148162,0.029632,0.303548,1.000000,0.000000,0.000000
57970.902344,47.190132,-119.332458,364.306671,1.281776,0.110402,76.687813,1.000000,0.091125,0.110304,0.022061,0.303548,1.000000,0.000000,0.000000
57971.042969,47.190132,-119.332451,364.306091,1.359835,0.113285,77.371262,1.000000,0.084459,0.096234,0.019247,0.303548,1.000000,0.000000,0.000000
57971.148438,47.190136,-119.332436,364.305786,1.449318,0.114728,78.059013,1.000000,0.084459,0.089443,0.017889,0.303548,1.000000,0.000000,0.000000
57971.273438,47.190136,-119.332428,364.305511,1.507031,0.108759,78.640343,1.000000,0.084459,0.076368,0.015274,0.303548,1.000000,0.000000,0.000000
57971.390625,47.190140,-119.332420,364.305420,1.532036,0.098280,79.136383,1.000000,0.084459,0.076368,0.015274,0.303548,1.000000,0.000000,0.000000
57971.496094,47.190140,-119.332405,364.305420,1.538032,0.088260,79.565536,1.000000,0.084459,0.058095,0.011619,0.303548,1.000000,0.000000,0.000000
57971.621094,47.190140,-119.332397,364.305664,1.542506,0.084236,79.981674,1.000000,0.084459,0.052383,0.010477,0.303548,1.000000,0.000000,0.000000
57971.742188,47.190144,-119.332390,364.305939,1.554759,0.097351,80.344460,1.000000,0.084459,0.052383,0.010477,0.303548,1.000000,0.000000,0.000000
57971.859375,47.190144,-119.332375,364.306244,1.573990,0.129695,80.642334,1.000000,0.084459,0.052383,0.010477,0.303548,1.000000,0.000000,0.000000
57971.980469,47.190144,-119.332367,364.306824,1.589859,0.185747,80.935249,1.000000,0.084459,0.052383,0.010477,0.303548,1.000000,0.000000,0.000000
57972.097656,47.190147,-119.332352,364.307465,1.578782,0.226818,81.181763,1.000000,0.084459,0.052383,0.010477,0.303548,1.000000,0.000000,0.000000
57972.222656,47.190147,-119.332344,364.308289,1.553543,0.240179,81.418709,1.000000,0.084459,0.036483,0.007297,0.303548,1.000000,0.000000,0.000000
57972.339844,47.190147,-119.332329,364.309052,1.551264,0.229889,81.612656,1.000000,0.084459,0.036483,0.007297,0.303548,1.000000,0.000000,0.000000
57972.445312,47.190151,-119.332321,364.309540,1.575358,0.229470,81.761986,1.000000,0.084459,0.036483,0.007297,0.303548,1.000000,0.000000,0.000000
57972.574219,47.190151,-119.332306,364.309998,1.607310,0.244849,81.916496,1.000000,0.084459,0.036483,0.007297,0.303548,1.000000,0.000000,0.000000
57972.691406,47.190151,-119.332298,364.310455,1.608218,0.260572,82.031296,1.000000,0.084459,0.027000,0.005400,0.303548,1.000000,0.000000,0.000000
57972.808594,47.190151,-119.332283,364.310944,1.591459,0.275273,82.126740,1.000000,0.084459,0.011180,0.002236,0.303548,1.000000,0.000000,0.000000
57972.925781,47.190155,-119.332275,364.311249,1.573194,0.283132,82.196709,1.000000,0.084459,0.011180,0.002236,0.303548,1.000000,0.000000,0.000000
57973.046875,47.190155,-119.332260,364.311737,1.565772,0.294186,82.247902,1.000000,0.084459,0.011180,0.002236,0.303548,1.000000,0.000000,0.000000
57973.164062,47.190155,-119.332253,364.312531,1.577552,0.299881,82.273941,1.000000,0.084459,0.011180,0.002236,0.303548,1.000000,0.000000,0.000000
57973.281250,47.190159,-119.332237,364.313171,1.588564,0.309923,82.285027,1.000000,0.084459,0.011180,0.002236,0.303548,1.000000,0.000000,0.000000
57973.402344,47.190159,-119.332230,364.313843,1.584505,0.318626,82.280357,1.000000,0.084459,0.011180,0.002236,0.303548,1.000000,0.000000,0.000000
57973.519531,47.190159,-119.332214,364.314484,1.572676,0.317189,82.264687,1.000000,0.084459,0.011180,0.002236,0.303548,1.000000,0.000000,0.000000
57973.636719,47.190163,-119.332207,364.315125,1.553216,0.313842,82.235916,1.000000,0.084459,0.011180,0.002236,0.303548,1.000000,0.000000,0.000000
57973.750000,47.190163,-119.332191,364.315582,1.530879,0.315883,82.198433,1.000000,0.084459,0.011180,0.002236,0.303548,1.000000,0.000000,0.000000
57973.875000,47.190163,-119.332176,364.315308,1.510301,0.314265,82.148949,1.000000,0.084459,0.011180,0.002236,0.303548,1.000000,0.000000,0.000000
57973.996094,47.190163,-119.332169,364.314545,1.484797,0.320976,82.092133,1.000000,0.084459,0.011180,0.002236,0.303548,1.000000,0.000000,0.000000
57974.117188,47.190166,-119.332153,364.314209,1.467032,0.324627,82.036362,1.000000,0.084459,0.011180,0.002236,0.303548,1.000000,0.000000,0.000000
57974.230469,47.190166,-119.332146,364.313965,1.465863,0.327123,81.968155,1.000000,0.084459,0.011180,0.002236,0.303548,1.000000,0.000000,0.000000
57974.378906,47.190166,-119.332130,364.313843,1.507612,0.339807,81.880447,1.000000,0.084459,0.011180,0.002236,0.261613,1.000000,0.000000,0.000000
57974.496094,47.190170,-119.332115,364.314117,1.558684,0.359424,81.809700,1.000000,0.084459,0.011180,0.002236,0.240110,1.000000,0.000000,0.000000
57974.621094,47.190170,-119.332100,364.314301,1.560356,0.374900,81.727386,1.000000,0.084459,0.011180,0.002236,0.220748,1.000000,0.000000,0.000000
57974.750000,47.190170,-119.332085,364.313965,1.506390,0.380573,81.649788,1.000000,0.084459,0.011180,0.002236,0.193739,1.000000,0.000000,0.000000
57974.871094,47.190174,-119.332077,364.312775,1.439391,0.369988,81.559097,1.000000,0.084459,0.011180,0.002236,0.170762,1.000000,0.000000,0.000000
57974.992188,47.190174,-119.332062,364.311554,1.405094,0.363734,81.478470,1.000000,0.084459,0.011180,0.002236,0.147233,1.000000,0.000000,0.000000
57975.121094,47.190178,-119.332047,364.310120,1.400589,0.363874,81.390793,1.000000,0.084459,0.011180,0.002236,0.147233,1.000000,0.000000,0.000000
57975.234375,47.190178,-119.332039,364.308929,1.434518,0.372423,81.307617,1.000000,0.091125,-0.070093,-0.014019,0.147233,1.000000,0.000000,0.000000
57975.351562,47.190178,-119.332024,364.308655,1.505072,0.381252,81.180397,1.000000,0.091125,-0.103189,-0.020638,0.147233,1.000000,0.000000,0.000000
57975.476562,47.190182,-119.332008,364.309143,1.558567,0.378223,80.971252,1.000000,0.097958,-0.216000,-0.043200,0.147233,1.000000,0.000000,0.000000
57975.593750,47.190182,-119.331993,364.309967,1.493935,0.377256,80.604202,1.000000,0.097958,-0.396817,-0.079363,0.147233,1.000000,0.000000,0.000000
57975.714844,47.190182,-119.331985,364.310699,1.228853,0.390028,79.920509,1.000000,0.097958,-0.610940,-0.122188,0.147233,1.000000,0.000000,0.000000
57975.832031,47.190186,-119.331970,364.312103,0.721211,0.431005,78.619148,1.000000,0.097958,-0.729000,-0.145800,0.147233,1.000000,0.000000,0.000000
57975.957031,47.190186,-119.331955,364.313782,0.234328,0.487415,76.557121,1.000000,0.097958,-0.729000,-0.145800,0.147233,1.000000,0.000000,0.000000
57976.074219,47.190189,-119.331947,364.314728,0.076152,0.574512,74.312370,1.000000,0.097958,-0.729000,-0.145800,0.147233,1.000000,0.000000,0.000000
57976.199219,47.190189,-119.331932,364.314606,0.133815,0.669957,71.407143,1.000000,0.084459,-0.610940,-0.122188,0.147233,1.000000,0.000000,0.000000
57976.312500,47.190193,-119.331924,364.314056,0.306478,0.778378,68.613029,1.000000,0.071645,-0.512000,-0.102400,0.147233,1.000000,0.000000,0.000000
57976.437500,47.190197,-119.331917,364.313141,0.588330,0.880394,65.323898,1.000000,0.053793,-0.374977,-0.074995,0.147233,1.000000,0.000000,0.000000
57976.542969,47.190201,-119.331902,364.311981,0.874195,0.958209,62.445560,1.000000,0.048231,-0.343000,-0.068600,0.147233,1.000000,0.000000,0.000000
57976.675781,47.190201,-119.331894,364.310394,1.149552,1.022215,59.145550,1.000000,0.042875,-0.322216,-0.064443,0.147233,1.000000,0.000000,0.000000
57976.789062,47.190205,-119.331886,364.307739,1.243633,1.042386,56.144051,1.000000,0.053793,-0.374977,-0.074995,0.147233,1.000000,0.000000,0.000000
57976.917969,47.190212,-119.331879,364.304962,1.050511,1.031178,53.132286,1.000000,0.053793,-0.374977,-0.074995,0.147233,1.000000,0.000000,0.000000
57977.039062,47.190216,-119.331871,364.299713,0.668916,1.008242,49.905365,1.000000,0.053793,-0.374977,-0.074995,0.147233,1.000000,0.000000,0.000000
57977.160156,47.190220,-119.331863,364.292480,0.445727,0.993027,47.036953,1.000000,0.042875,-0.262528,-0.052506,0.147233,1.000000,0.000000,0.000000
57977.277344,47.190224,-119.331856,364.284607,0.446860,0.975739,44.164631,1.000000,0.032816,-0.198252,-0.039650,0.147233,1.000000,0.000000,0.000000
57977.394531,47.190228,-119.331848,364.277222,0.610010,0.955777,41.848957,1.000000,0.037734,0.000000,0.000000,0.147233,1.000000,0.000000,0.000000
57977.515625,47.190235,-119.331841,364.268219,0.887593,0.910167,39.472530,1.000000,0.042875,0.008000,0.001600,0.147233,1.000000,0.000000,0.000000
57977.636719,47.190239,-119.331833,364.260101,1.078990,0.871864,37.603710,1.000000,0.042875,0.008000,0.001600,0.147233,1.000000,0.000000,0.000000
57977.761719,47.190247,-119.331825,364.252289,1.157163,0.824809,35.931252,1.000000,0.048231,0.008000,0.001600,0.147233,1.000000,0.000000,0.000000
57977.886719,47.190250,-119.331818,364.244568,1.139040,0.769945,34.495903,1.000000,0.048231,0.008000,0.001600,0.147233,1.000000,0.000000,0.000000
57978.007812,47.190258,-119.331810,364.237061,1.088237,0.710427,33.268894,1.000000,0.048231,0.014697,0.002939,0.147233,1.000000,0.000000,0.000000
57978.121094,47.190262,-119.331810,364.230408,1.047371,0.651080,32.315647,1.000000,0.042875,0.036483,0.007297,0.147233,1.000000,0.000000,0.000000
57978.242188,47.190269,-119.331802,364.223389,1.028231,0.591488,31.453859,1.000000,0.037734,0.046872,0.009374,0.147233,1.000000,0.000000,0.000000
57978.355469,47.190277,-119.331795,364.215851,1.044515,0.552766,30.746227,1.000000,0.037734,0.046872,0.009374,0.147233,1.000000,0.000000,0.000000
57978.484375,47.190281,-119.331787,364.207947,1.084773,0.525840,30.142115,1.000000,0.037734,0.046872,0.009374,0.147233,1.000000,0.000000,0.000000
57978.605469,47.190289,-119.331787,364.200409,1.113692,0.494682,29.627695,1.000000,0.037734,0.046872,0.009374,0.147233,1.000000,0.000000,0.000000
57978.722656,47.190296,-119.331779,364.194122,1.112898,0.457914,29.250984,1.000000,0.037734,0.046872,0.009374,0.147233,1.000000,0.000000,0.000000
57978.851562,47.190300,-119.331772,364.187134,1.093347,0.401635,28.901468,1.000000,0.037734,0.046872,0.009374,0.147233,1.000000,0.000000,0.000000
57978.976562,47.190308,-119.331772,364.179626,1.071026,0.342855,28.625301,1.000000,0.037734,0.046872,0.009374,0.147233,1.000000,0.000000,0.000000
57979.089844,47.190315,-119.331764,364.172821,1.051045,0.303400,28.438105,1.000000,0.037734,0.046872,0.009374,0.147233,1.000000,0.000000,0.000000
57979.207031,47.190319,-119.331757,364.164978,1.042353,0.261203,28.268923,1.000000,0.037734,0.022627,0.004525,0.147233,1.000000,0.000000,0.000000
57979.324219,47.190327,-119.331757,364.157471,1.056929,0.226967,28.125933,1.000000,0.053793,0.000000,0.000000,0.147233,1.000000,0.000000,0.000000
57979.441406,47.190334,-119.331749,364.151154,1.083374,0.200729,28.004259,1.000000,0.059553,-0.011180,-0.002236,0.147233,1.000000,0.000000,0.000000
57979.550781,47.190338,-119.331741,364.144440,1.117610,0.192073,27.867069,1.000000,0.059553,-0.064000,-0.012800,0.147233,1.000000,0.000000,0.000000
57979.671875,47.190346,-119.331741,364.137817,1.140360,0.216299,27.689007,1.000000,0.059553,-0.125000,-0.025000,0.147233,1.000000,0.000000,0.000000
57979.781250,47.190353,-119.331734,364.132263,1.129075,0.251777,27.469450,1.000000,0.059553,-0.156170,-0.031234,0.147233,1.000000,0.000000,0.000000
57979.914062,47.190361,-119.331726,364.125641,1.095360,0.299417,27.101751,1.000000,0.059553,-0.156170,-0.031234,0.147233,1.000000,0.000000,0.000000
57980.035156,47.190369,-119.331726,364.118805,1.079293,0.333379,26.652664,1.000000,0.059553,-0.156170,-0.031234,0.147233,1.000000,0.000000,0.000000
57980.160156,47.190372,-119.331718,364.112274,1.090497,0.363935,26.135113,1.000000,0.059553,-0.181019,-0.036204,0.147233,1.000000,0.000000,0.000000
57980.277344,47.190380,-119.331711,364.106323,1.081458,0.400915,25.560349,1.000000,0.059553,-0.272191,-0.054438,0.147233,1.000000,0.000000,0.000000
57980.382812,47.190388,-119.331711,364.100861,1.023259,0.432264,24.914145,1.000000,0.059553,-0.272191,-0.054438,0.147233,1.000000,0.000000,0.000000
57980.496094,47.190392,-119.331703,364.094879,0.932223,0.467668,24.060623,1.000000,0.059553,-0.272191,-0.054438,0.147233,1.000000,0.000000,0.000000
57980.625000,47.190399,-119.331703,364.087952,0.837601,0.511718,22.959478,1.000000,0.059553,-0.272191,-0.054438,0.147233,1.000000,0.000000,0.000000
57980.750000,47.190407,-119.331696,364.081665,0.775633,0.544198,21.943096,1.000000,0.059553,-0.272191,-0.054438,0.147233,1.000000,0.000000,0.000000
57980.867188,47.190414,-119.331696,364.074371,0.738544,0.570655,20.692083,1.000000,0.059553,-0.272191,-0.054438,0.147233,1.000000,0.000000,0.000000
57980.984375,47.190422,-119.331688,364.066772,0.774837,0.589566,19.367800,1.000000,0.042875,-0.164317,-0.032863,0.147233,1.000000,0.000000,0.000000
57981.101562,47.190426,-119.331688,364.059784,0.880488,0.608248,18.185772,1.000000,0.037734,-0.140296,-0.028059,0.147233,1.000000,0.000000,0.000000
57981.207031,47.190434,-119.331680,364.053711,0.996352,0.619165,17.153309,1.000000,0.037734,-0.140296,-0.028059,0.147233,1.000000,0.000000,0.000000
57981.332031,47.190441,-119.331680,364.046967,1.119436,0.609470,15.980545,1.000000,0.028133,-0.110304,-0.022061,0.147233,1.000000,0.000000,0.000000
57981.449219,47.190449,-119.331673,364.041534,1.185819,0.578828,15.072008,1.000000,0.028133,-0.089443,-0.017889,0.147233,1.000000,0.000000,0.000000
57981.554688,47.190453,-119.331673,364.035828,1.212175,0.533436,14.126143,1.000000,0.023696,-0.064000,-0.012800,0.147233,1.000000,0.000000,0.000000
57981.691406,47.190464,-119.331673,364.029724,1.203511,0.487961,13.167721,1.000000,0.023696,-0.064000,-0.012800,0.147233,1.000000,0.000000,0.000000
57981.804688,47.190468,-119.331665,364.024994,1.205075,0.460206,12.444194,1.000000,0.023696,0.001000,0.000200,0.147233,1.000000,0.000000,0.000000
57981.925781,47.190475,-119.331665,364.020355,1.238778,0.421632,11.779096,1.000000,0.032816,0.046872,0.009374,0.147233,1.000000,0.000000,0.000000
57982.042969,47.190483,-119.331665,364.015717,1.277596,0.398120,11.200993,1.000000,0.032816,0.046872,0.009374,0.147233,1.000000,0.000000,0.000000
57982.164062,47.190491,-119.331665,364.011444,1.294485,0.389640,10.712782,1.000000,0.042875,0.002828,0.000566,0.147233,1.000000,0.000000,0.000000
57982.285156,47.190498,-119.331657,364.007050,1.283842,0.394234,10.279135,1.000000,0.048231,-0.001000,-0.000200,0.147233,1.000000,0.000000,0.000000
57982.410156,47.190506,-119.331657,364.002258,1.255402,0.396097,9.912936,1.000000,0.048231,-0.001000,-0.000200,0.147233,1.000000,0.000000,0.000000
57982.523438,47.190514,-119.331657,363.997620,1.228439,0.402009,9.614568,1.000000,0.048231,-0.001000,-0.000200,0.147233,1.000000,0.000000,0.000000
57982.648438,47.190521,-119.331657,363.992737,1.200212,0.399099,9.330035,1.000000,0.042875,0.005196,0.001039,0.147233,1.000000,0.000000,0.000000
57982.765625,47.190529,-119.331650,363.986359,1.161353,0.379904,9.031626,1.000000,0.042875,0.005196,0.001039,0.147233,1.000000,0.000000,0.000000
57982.886719,47.190536,-119.331650,363.980072,1.138833,0.362246,8.799008,1.000000,0.042875,0.005196,0.001039,0.147233,1.000000,0.000000,0.000000
57983.003906,47.190544,-119.331650,363.973572,1.139589,0.335360,8.595332,1.000000,0.042875,0.005196,0.001039,0.147233,1.000000,0.000000,0.000000
57983.125000,47.190552,-119.331650,363.967346,1.150281,0.322134,8.409838,1.000000,0.037734,0.008000,0.001600,0.147233,1.000000,0.000000,0.000000
57983.242188,47.190556,-119.331642,363.961578,1.143218,0.319544,8.259534,1.000000,0.037734,0.008000,0.001600,0.147233,1.000000,0.000000,0.000000
57983.359375,47.190563,-119.331642,363.954895,1.109608,0.317776,8.111740,1.000000,0.037734,0.008000,0.001600,0.147233,1.000000,0.000000,0.000000
57983.480469,47.190575,-119.331642,363.947205,1.063358,0.306284,7.961370,1.000000,0.037734,0.008000,0.001600,0.147233,1.000000,0.000000,0.000000
57983.597656,47.190582,-119.331642,363.940674,1.031605,0.293327,7.845796,1.000000,0.037734,0.008000,0.001600,0.147233,1.000000,0.000000,0.000000
57983.710938,47.190586,-119.331642,363.934082,1.012684,0.292588,7.738830,1.000000,0.037734,0.001000,0.000200,0.147233,1.000000,0.000000,0.000000
57983.828125,47.190594,-119.331635,363.927612,1.020232,0.292488,7.639754,1.000000,0.042875,-0.001000,-0.000200,0.163433,1.000000,0.000000,0.000000
57983.941406,47.190601,-119.331635,363.921295,1.064321,0.291568,7.541254,1.000000,0.042875,-0.002828,-0.000566,0.192184,1.000000,0.000000,0.000000
57984.058594,47.190609,-119.331635,363.915222,1.141792,0.298863,7.439614,1.000000,0.048231,-0.018520,-0.003704,0.192184,1.000000,0.000000,0.000000
57984.179688,47.190617,-119.331635,363.909943,1.205135,0.316818,7.335380,1.000000,0.059553,-0.103189,-0.020638,0.192184,1.000000,0.000000,0.000000
57984.300781,47.190628,-119.331635,363.904602,1.243619,0.339057,7.150666,1.000000,0.059553,-0.103189,-0.020638,0.192184,1.000000,0.000000,0.000000
57984.425781,47.190636,-119.331627,363.900452,1.255651,0.353832,6.929616,1.000000,0.059553,-0.103189,-0.020638,0.234284,1.000000,0.000000,0.000000
57984.535156,47.190639,-119.331627,363.896118,1.249597,0.359604,6.667868,1.000000,0.059553,-0.103189,-0.020638,0.234284,1.000000,0.000000,0.000000
57984.656250,47.190651,-119.331627,363.891144,1.230083,0.353217,6.353920,1.000000,0.059553,-0.103189,-0.020638,0.234284,1.000000,0.000000,0.000000
57984.765625,47.190655,-119.331627,363.886566,1.208510,0.338817,6.041203,1.000000,0.059553,-0.096234,-0.019247,0.234284,1.000000,0.000000,0.000000
57984.886719,47.190662,-119.331627,363.881439,1.192637,0.319530,5.682150,1.000000,0.042875,-0.027000,-0.005400,0.234284,1.000000,0.000000,0.000000
57984.992188,47.190670,-119.331627,363.876648,1.178489,0.316960,5.374942,1.000000,0.037734,-0.018520,-0.003704,0.234284,1.000000,0.000000,0.000000
57985.117188,47.190678,-119.331627,363.871277,1.150126,0.323637,5.061979,1.000000,0.032816,-0.001000,-0.000200,0.234284,1.000000,0.000000,0.000000
57985.238281,47.190689,-119.331619,363.865082,1.123324,0.320448,4.758403,1.000000,0.028133,0.005196,0.001039,0.234284,1.000000,0.000000,0.000000
57985.343750,47.190693,-119.331619,363.859924,1.114530,0.315235,4.531852,1.000000,0.028133,0.005196,0.001039,0.234284,1.000000,0.000000,0.000000
57985.464844,47.190704,-119.331619,363.854248,1.108211,0.302716,4.296888,1.000000,0.028133,0.005196,0.001039,0.234284,1.000000,0.000000,0.000000
57985.585938,47.190712,-119.331619,363.848450,1.101525,0.280622,4.087272,1.000000,0.028133,0.005196,0.001039,0.253788,1.000000,0.000000,0.000000
57985.710938,47.190720,-119.331619,363.842163,1.122398,0.261264,3.880868,1.000000,0.028133,0.005196,0.001039,0.275336,1.000000,0.000000,0.000000
57985.835938,47.190727,-119.331619,363.836182,1.172603,0.256239,3.702267,1.000000,0.028133,0.005196,0.001039,0.275336,1.000000,0.000000,0.000000
57985.949219,47.190735,-119.331619,363.831482,1.211262,0.247249,3.558121,1.000000,0.028133,0.005196,0.001039,0.275336,1.000000,0.000000,0.000000
57986.066406,47.190742,-119.331619,363.826324,1.235663,0.247470,3.407689,1.000000,0.028133,0.014697,0.002939,0.275336,1.000000,0.000000,0.000000
57986.191406,47.190754,-119.331619,363.821045,1.241179,0.245276,3.265138,1.000000,0.023696,0.027000,0.005400,0.275336,1.000000,0.000000,0.000000
57986.316406,47.190762,-119.331612,363.816620,1.246022,0.236502,3.145643,1.000000,0.023696,0.027000,0.005400,0.275336,1.000000,0.000000,0.000000
57986.437500,47.190769,-119.331612,363.812286,1.288443,0.252261,3.045998,1.000000,0.023696,0.027000,0.005400,0.275336,1.000000,0.000000,0.000000
57986.546875,47.190777,-119.331612,363.808960,1.337274,0.258973,2.975696,1.000000,0.023696,0.027000,0.005400,0.275336,1.000000,0.000000,0.000000
57986.664062,47.190784,-119.331612,363.804901,1.360106,0.253773,2.901327,1.000000,0.023696,0.027000,0.005400,0.275336,1.000000,0.000000,0.000000
57986.789062,47.190796,-119.331612,363.800476,1.313023,0.245554,2.839469,1.000000,0.023696,0.027000,0.005400,0.275336,1.000000,0.000000,0.000000
57986.914062,47.190804,-119.331612,363.794342,1.217942,0.253323,2.780308,1.000000,0.023696,0.027000,0.005400,0.302518,1.000000,0.000000,0.000000
57987.039062,47.190811,-119.331612,363.787811,1.135726,0.265351,2.731951,1.000000,0.023696,0.027000,0.005400,0.316908,1.000000,0.000000,0.000000
57987.144531,47.190823,-119.331612,363.781494,1.087593,0.280884,2.692186,1.000000,0.023696,0.027000,0.005400,0.316908,1.000000,0.000000,0.000000
57987.277344,47.190830,-119.331612,363.774017,1.075263,0.295150,2.650504,1.000000,0.023696,0.027000,0.005400,0.316908,1.000000,0.000000,0.000000
57987.402344,47.190842,-119.331612,363.767517,1.095567,0.295529,2.618495,1.000000,0.023696,0.027000,0.005400,0.316908,1.000000,0.000000,0.000000
57987.523438,47.190849,-119.331612,363.761200,1.132452,0.305788,2.591803,1.000000,0.023696,0.027000,0.005400,0.316908,1.000000,0.000000,0.000000
57987.652344,47.190857,-119.331612,363.754791,1.177544,0.313713,2.567880,1.000000,0.023696,0.027000,0.005400,0.316908,1.000000,0.000000,0.000000
57987.769531,47.190868,-119.331612,363.749146,1.203641,0.321757,2.549135,1.000000,0.023696,0.022627,0.004525,0.316908,1.000000,0.000000,0.000000
57987.886719,47.190876,-119.331604,363.743561,1.219324,0.336555,2.529763,1.000000,0.023696,0.022627,0.004525,0.316908,1.000000,0.000000,0.000000
57987.992188,47.190884,-119.331604,363.738251,1.236550,0.350679,2.510646,1.000000,0.023696,0.022627,0.004525,0.316908,1.000000,0.000000,0.000000
